city_id,city_name,regione,lat,lng,popolazione,reddito_medio,costo_vita_index,tasso_occupazione,qualita_vita_index,servizi_sanitari_index,istruzione_index,sicurezza_index,prezzo_medio_case_mq,tasso_affitto,attrattivita_immobiliare,digital_infrastructure_index,offerta_culturale_index
1,Milano,Nord Ovest,45.4654,9.1866,166988,28117,100.4,0.74,84.5,92.1,88.7,75.6,4298,0.058,69.3,73.0,75.4
2,Torino,Nord Ovest,45.0703,7.6869,1146554,24138,86.2,0.71,77.7,88.7,94.2,63.8,1899,0.047,90.1,60.5,50.5
3,Genova,Nord Ovest,44.4056,8.9463,358325,28014,94.1,0.71,79.1,89.3,73.4,75.9,3055,0.054,66.5,84.8,73.6
4,Brescia,Nord Ovest,45.5416,10.2118,174541,22008,85.6,0.57,68.0,70.7,65.5,73.0,4692,0.038,65.0,76.2,78.8
5,Novara,Nord Ovest,45.4469,8.6202,868332,30339,107.1,0.72,90.0,76.3,94.8,80.6,3566,0.062,91.4,93.2,58.0
6,Varese,Nord Ovest,45.8206,8.8257,726253,37063,96.5,0.6,58.6,80.9,84.5,61.8,3625,0.075,64.7,64.3,87.6
7,Bologna,Nord Est,44.4949,11.3426,1288873,25437,106.6,0.67,63.4,88.8,76.5,79.5,2285,0.071,65.6,72.8,67.6
8,Verona,Nord Est,45.4384,10.9916,344547,35989,88.4,0.66,83.5,80.3,71.4,82.3,2997,0.038,67.7,80.7,79.6
9,Padova,Nord Est,45.4064,11.8768,799015,26352,102.8,0.62,62.9,93.1,71.0,66.7,4428,0.037,78.4,87.4,62.3
10,Trento,Nord Est,46.0748,11.1217,1192627,34314,99.6,0.57,89.0,81.8,78.1,86.0,2716,0.058,89.3,73.8,84.8
11,Trieste,Nord Est,45.6495,13.7768,410663,33237,100.3,0.58,59.8,76.0,84.9,76.1,4277,0.049,88.7,61.3,66.5
12,Udine,Nord Est,46.0716,13.2343,167067,36707,99.3,0.61,72.2,78.6,89.6,74.0,2752,0.078,93.7,61.3,81.8
13,Roma,Centro,41.9028,12.4964,564438,32803,104.1,0.62,89.5,72.5,82.1,83.5,1723,0.045,63.0,87.4,86.1
14,Firenze,Centro,43.7696,11.2558,410405,22066,97.7,0.69,76.8,75.6,70.6,71.6,1254,0.034,61.5,81.9,59.8
15,Pisa,Centro,43.7228,10.4017,633093,31942,109.9,0.66,61.2,93.3,63.2,67.8,4516,0.06,81.5,70.6,53.5
16,Ancona,Centro,43.6158,13.5189,556462,28434,93.1,0.59,67.4,82.4,93.2,79.6,4006,0.045,59.2,70.2,68.1
17,Perugia,Centro,43.1122,12.3888,987542,37029,109.3,0.6,83.7,74.4,66.1,71.1,3227,0.068,69.0,65.1,54.2
18,Arezzo,Centro,43.4633,11.8797,219553,37200,113.6,0.74,65.6,66.7,94.3,89.6,1482,0.068,66.5,91.8,54.0
19,Napoli,Sud,40.8518,14.2681,1251808,22041,100.7,0.62,70.0,75.2,82.9,55.8,3688,0.031,62.4,81.2,53.9
20,Bari,Sud,41.1171,16.8719,1387901,34550,106.2,0.6,56.7,94.3,65.2,84.1,1911,0.049,82.7,93.1,50.9
21,Salerno,Sud,40.6824,14.7681,416821,34239,90.2,0.57,56.6,77.6,86.9,88.7,2162,0.036,71.1,61.9,64.9
22,Lecce,Sud,40.3515,18.175,925296,24690,104.0,0.74,85.2,72.5,74.8,69.7,4295,0.08,88.0,79.5,54.4
23,Potenza,Sud,40.6399,15.8052,1339463,35760,110.2,0.63,70.7,64.2,92.8,88.0,2115,0.065,63.1,73.8,63.6
24,Cosenza,Sud,39.2986,16.2528,588156,26943,95.4,0.71,65.5,88.5,79.9,82.3,4508,0.037,68.8,61.9,68.3
25,Palermo,Isole,38.1157,13.3615,385745,31146,108.5,0.65,66.7,65.3,60.9,78.7,1309,0.076,78.8,72.4,51.9
26,Catania,Isole,37.5079,15.083,619937,35876,114.1,0.57,82.2,69.0,73.3,74.2,4781,0.04,60.2,80.8,88.4
27,Cagliari,Isole,39.2238,9.1217,932127,27561,114.3,0.75,82.0,88.1,86.6,64.0,1740,0.058,93.2,90.7,54.8
28,Sassari,Isole,40.727,8.5585,145798,35980,103.4,0.61,74.7,67.8,93.1,84.0,4664,0.039,88.7,79.6,64.6
29,Trapani,Isole,37.9906,12.514,707952,37110,105.7,0.62,90.0,72.1,88.5,82.5,3802,0.063,59.3,94.8,57.2
30,Siracusa,Isole,37.0755,15.2866,862858,25986,90.1,0.66,84.3,73.2,62.7,76.8,3959,0.045,82.6,62.7,66.3
